Timestamp(ms),Ax(m/s2),Ay(m/s2),Az(m/s2),Gx(deg/s),Gy(deg/s),Gz(deg/s),Roll(deg),Pitch(deg),Yaw(deg),WGS84_Lat(deg),WGS84_Lon(deg),GCJ02_Lat(deg),GCJ02_Lon(deg),Lat_Dir,Lon_Dir
98537,-1.42,0.22,9.71,0.00,0.00,0.00,1.16,8.36,-25.39,22.58925933,113.96952483,22.58630470,113.97445502,N,E
98636,-1.41,0.22,9.71,0.00,0.00,0.00,1.18,8.36,-25.39,22.58925933,113.96952483,22.58630470,113.97445502,N,E
98775,-1.42,0.22,9.70,0.00,0.00,0.00,1.18,8.36,-25.39,22.58925933,113.96952483,22.58630470,113.97445502,N,E
98875,-1.41,0.22,9.70,0.00,0.00,0.00,1.19,8.35,-25.38,22.58925933,113.96952483,22.58630470,113.97445502,N,E
99047,-1.42,0.22,9.70,0.00,0.00,0.00,1.20,8.35,-25.38,22.58925933,113.96952483,22.58630470,113.97445502,N,E
99146,-1.41,0.22,9.71,0.00,0.00,0.00,1.20,8.34,-25.38,22.58925933,113.96952483,22.58630470,113.97445502,N,E
99285,-1.42,0.22,9.70,0.00,0.00,0.00,1.21,8.34,-25.38,22.58925933,113.96952483,22.58630470,113.97445502,N,E
99384,-1.42,0.22,9.71,0.00,0.00,0.00,1.21,8.34,-25.38,22.58925933,113.96952483,22.58630470,113.97445502,N,E
99556,-1.42,0.22,9.70,0.00,0.00,0.00,1.22,8.34,-25.38,22.58925933,113.96952483,22.58630470,113.97445502,N,E
99655,-1.42,0.22,9.70,0.00,0.00,0.00,1.22,8.34,-25.38,22.58925933,113.96952483,22.58630470,113.97445502,N,E
99794,-1.42,0.22,9.70,0.00,0.00,0.00,1.23,8.33,-25.37,22.58925933,113.96952483,22.58630470,113.97445502,N,E
99894,-1.42,0.22,9.70,0.00,0.00,0.00,1.23,8.33,-25.37,22.58925917,113.96952483,22.58630453,113.97445502,N,E
100065,-1.42,0.22,9.71,0.00,0.00,0.00,1.24,8.33,-25.37,22.58925917,113.96952483,22.58630453,113.97445502,N,E
100161,-1.42,0.22,9.70,0.00,0.00,0.00,1.24,8.33,-25.37,22.58925917,113.96952483,22.58630453,113.97445502,N,E
100261,-1.42,0.22,9.70,0.00,0.00,0.00,1.24,8.33,-25.37,22.58925917,113.96952483,22.58630453,113.97445502,N,E
100365,-1.42,0.21,9.70,0.00,0.00,0.00,1.25,8.33,-25.37,22.58925917,113.96952483,22.58630453,113.97445502,N,E
100565,-1.42,0.22,9.71,0.00,0.00,0.00,1.25,8.33,-25.37,22.58925917,113.96952483,22.58630453,113.97445502,N,E
100664,-1.42,0.22,9.70,0.00,0.00,0.00,1.25,8.33,-25.37,22.58925917,113.96952483,22.58630453,113.97445502,N,E
100764,-1.42,0.22,9.70,0.00,0.00,0.00,1.25,8.32,-25.37,22.58925917,113.96952483,22.58630453,113.97445502,N,E
100864,-1.41,0.22,9.70,0.00,0.00,0.00,1.25,8.32,-25.37,22.58925917,113.96952483,22.58630453,113.97445502,N,E
101065,-1.42,0.22,9.70,0.00,0.00,0.00,1.26,8.32,-25.37,22.58925917,113.96952483,22.58630453,113.97445502,N,E
101164,-1.42,0.22,9.70,0.00,0.00,0.00,1.26,8.32,-25.37,22.58925917,113.96952483,22.58630453,113.97445502,N,E
101264,-1.42,0.22,9.70,0.00,0.00,0.00,1.26,8.32,-25.37,22.58925917,113.96952483,22.58630453,113.97445502,N,E
101364,-1.42,0.22,9.70,0.00,0.00,0.00,1.26,8.32,-25.37,22.58925917,113.96952483,22.58630453,113.97445502,N,E
101569,-1.42,0.22,9.70,0.00,0.00,0.00,1.26,8.32,-25.37,22.58925917,113.96952483,22.58630453,113.97445502,N,E
101668,-1.42,0.22,9.70,0.00,0.00,0.00,1.26,8.32,-25.37,22.58925917,113.96952483,22.58630453,113.97445502,N,E
101807,-1.42,0.22,9.70,0.00,0.00,0.00,1.27,8.32,-25.36,22.58925917,113.96952483,22.58630453,113.97445502,N,E
101908,-1.41,0.22,9.70,0.00,0.00,0.00,1.27,8.32,-25.36,22.58925917,113.96952483,22.58630453,113.97445502,N,E
102079,-1.41,0.22,9.70,0.00,0.00,0.00,1.27,8.32,-25.36,22.58925917,113.96952483,22.58630453,113.97445502,N,E
102178,-1.41,0.22,9.71,0.00,0.00,0.00,1.27,8.32,-25.36,22.58925917,113.96952483,22.58630453,113.97445502,N,E
102317,-1.43,0.22,9.69,0.00,0.00,0.00,1.27,8.32,-25.36,22.58925917,113.96952483,22.58630453,113.97445502,N,E
102416,-1.42,0.22,9.70,0.00,0.00,0.00,1.27,8.32,-25.36,22.58925917,113.96952483,22.58630453,113.97445502,N,E
102587,-1.43,0.22,9.70,0.00,0.00,0.00,1.27,8.32,-25.36,22.58925917,113.96952483,22.58630453,113.97445502,N,E
102686,-1.42,0.22,9.71,0.00,0.00,0.00,1.27,8.32,-25.36,22.58925917,113.96952483,22.58630453,113.97445502,N,E
102826,-1.41,0.22,9.70,0.00,0.00,0.00,1.27,8.32,-25.36,22.58925917,113.96952483,22.58630453,113.97445502,N,E
102925,-1.42,0.22,9.70,0.00,0.00,0.00,1.27,8.32,-25.36,22.58925917,113.96952483,22.58630453,113.97445502,N,E
103096,-1.42,0.22,9.70,0.00,0.00,0.00,1.27,8.32,-25.36,22.58925917,113.96952483,22.58630453,113.97445502,N,E
103195,-1.42,0.22,9.70,0.00,0.00,0.00,1.27,8.32,-25.36,22.58925917,113.96952483,22.58630453,113.97445502,N,E
103334,-1.41,0.21,9.69,0.00,0.00,0.00,1.27,8.31,-25.36,22.58925917,113.96952483,22.58630453,113.97445502,N,E
103433,-1.42,0.22,9.70,0.00,0.00,0.00,1.27,8.31,-25.36,22.58925917,113.96952483,22.58630453,113.97445502,N,E
103603,-1.43,0.22,9.70,0.00,0.00,0.00,1.28,8.32,-25.36,22.58925917,113.96952483,22.58630453,113.97445502,N,E
103703,-1.42,0.22,9.71,0.00,0.00,0.00,1.28,8.32,-25.36,22.58925917,113.96952483,22.58630453,113.97445502,N,E
103803,-1.42,0.22,9.69,0.00,0.00,0.00,1.28,8.32,-25.36,22.58925917,113.96952483,22.58630453,113.97445502,N,E
103903,-1.42,0.22,9.70,0.00,0.00,0.00,1.28,8.32,-25.36,22.58925900,113.96952483,22.58630436,113.97445502,N,E
104103,-1.42,0.21,9.71,0.00,0.00,0.00,1.28,8.31,-25.36,22.58925900,113.96952483,22.58630436,113.97445502,N,E
104202,-1.42,0.22,9.71,0.00,0.00,0.00,1.28,8.31,-25.36,22.58925900,113.96952483,22.58630436,113.97445502,N,E
104342,-1.42,0.22,9.70,0.00,0.00,0.00,1.28,8.31,-25.36,22.58925900,113.96952483,22.58630436,113.97445502,N,E
104441,-0.97,0.34,10.36,-5.19,48.58,1.40,1.24,8.68,-25.33,22.58925900,113.96952483,22.58630436,113.97445502,N,E
104611,-2.23,0.96,9.71,2.44,5.19,-17.52,1.08,11.95,-25.81,22.58925900,113.96952483,22.58630436,113.97445502,N,E
104711,-2.49,0.14,9.63,-29.17,42.97,-7.26,-0.59,14.92,-26.85,22.58925900,113.96952483,22.58630436,113.97445502,N,E
104811,-3.08,-0.42,9.42,-18.25,53.96,-7.51,-2.42,19.66,-27.67,22.58925900,113.96952483,22.58630436,113.97445502,N,E
104912,-3.99,-0.66,8.49,-17.76,55.42,2.08,-4.12,25.03,-28.18,22.58925900,113.96952483,22.58630436,113.97445502,N,E
105113,-5.33,-1.02,7.32,-15.38,29.24,4.94,-7.15,33.44,-28.33,22.58925900,113.96952483,22.58630436,113.97445502,N,E
105213,-5.75,-1.26,7.07,-3.05,5.19,3.36,-8.06,34.91,-28.19,22.58925900,113.96952483,22.58630436,113.97445502,N,E
105352,-5.17,-1.03,7.38,8.06,-40.16,3.05,-7.11,32.68,-27.11,22.58925900,113.96952483,22.58630436,113.97445502,N,E
105452,-4.38,-1.24,8.24,10.93,-59.81,0.92,-5.61,27.80,-26.20,22.58925900,113.96952483,22.58630436,113.97445502,N,E
105622,-3.16,-0.38,9.83,21.30,-50.54,8.30,-1.52,18.44,-24.47,22.58925900,113.96952483,22.58630436,113.97445502,N,E
105722,-2.57,0.02,9.71,21.73,-36.50,6.53,0.99,14.83,-23.47,22.58925900,113.96952483,22.58630436,113.97445502,N,E
105862,-1.96,0.72,9.85,-1.65,-21.97,5.74,1.57,10.37,-22.65,22.58925900,113.96952483,22.58630436,113.97445502,N,E
105963,-1.51,0.23,9.63,-1.04,-5.00,-0.06,1.46,9.23,-22.46,22.58925900,113.96952483,22.58630436,113.97445502,N,E
106133,-1.12,-0.10,9.75,-1.77,2.81,6.29,1.23,8.17,-21.65,22.58925900,113.96952483,22.58630436,113.97445502,N,E
106232,-1.41,-0.03,9.64,-6.65,10.38,25.57,0.98,8.82,-19.93,22.58925900,113.96952483,22.58630436,113.97445502,N,E
106372,-1.24,-0.58,9.77,-5.43,17.15,38.82,0.99,9.50,-15.30,22.58925900,113.96952483,22.58630436,113.97445502,N,E
106472,-1.73,-0.12,9.55,-7.57,-4.39,35.89,0.92,9.98,-11.34,22.58925900,113.96952483,22.58630436,113.97445502,N,E
106642,-2.05,0.80,9.49,-1.46,-2.26,19.29,0.84,9.43,-5.60,22.58925900,113.96952483,22.58630436,113.97445502,N,E
106742,-1.38,0.30,9.70,1.34,-5.62,-5.00,1.30,7.54,-5.07,22.58925900,113.96952483,22.58630436,113.97445502,N,E
106882,-1.45,0.95,9.73,11.35,0.49,-80.32,1.64,7.68,-12.06,22.58925900,113.96952483,22.58630436,113.97445502,N,E
106981,-0.69,0.24,9.81,9.52,-0.73,-75.93,1.85,8.05,-20.22,22.58925900,113.96952483,22.58630436,113.97445502,N,E
107152,-0.97,0.35,9.73,4.46,0.00,-34.24,1.70,7.99,-29.13,22.58925900,113.96952483,22.58630436,113.97445502,N,E
107251,-0.67,-1.05,9.86,1.40,-0.12,-11.60,1.60,7.92,-31.65,22.58925900,113.96952483,22.58630436,113.97445502,N,E
107391,-1.15,-0.97,9.75,-4.58,0.92,35.40,1.30,7.72,-30.11,22.58925900,113.96952483,22.58630436,113.97445502,N,E
107490,-1.05,0.07,9.74,-5.80,-0.12,44.43,1.03,7.53,-24.57,22.58925900,113.96952483,22.58630436,113.97445502,N,E
107660,-1.34,0.54,9.68,-1.46,-0.37,15.81,0.98,7.40,-19.03,22.58925900,113.96952483,22.58630436,113.97445502,N,E
107760,-1.16,0.99,9.72,-0.98,-0.24,-7.39,0.96,7.35,-18.64,22.58925900,113.96952483,22.58630436,113.97445502,N,E
107900,-1.20,-0.38,9.45,7.45,7.26,8.00,1.05,7.46,-18.89,22.58925900,113.96952483,22.58630436,113.97445502,N,E
107999,-1.24,0.15,9.71,0.24,0.67,0.06,1.21,7.60,-18.75,22.58925900,113.96952483,22.58630436,113.97445502,N,E
108169,-1.31,0.20,9.69,0.00,0.00,0.00,1.22,7.60,-18.72,22.58925900,113.96952483,22.58630436,113.97445502,N,E
108269,-1.28,0.19,9.69,0.12,0.24,0.00,1.22,7.60,-18.70,22.58925900,113.96952483,22.58630436,113.97445502,N,E
108408,-1.29,0.20,9.70,0.00,0.00,0.00,1.21,7.60,-18.68,22.58925900,113.96952483,22.58630436,113.97445502,N,E
108507,-1.28,0.19,9.69,0.06,0.12,0.00,1.21,7.60,-18.67,22.58925900,113.96952483,22.58630436,113.97445502,N,E
108677,-1.28,0.19,9.70,0.00,0.06,0.00,1.20,7.59,-18.64,22.58925900,113.96952483,22.58630436,113.97445502,N,E
108776,-1.28,0.18,9.69,0.00,0.00,0.00,1.20,7.59,-18.63,22.58925900,113.96952483,22.58630436,113.97445502,N,E
108876,-1.28,0.19,9.69,0.00,0.00,0.00,1.20,7.59,-18.62,22.58925900,113.96952483,22.58630436,113.97445502,N,E
108976,-1.29,0.19,9.70,0.00,0.00,0.00,1.19,7.59,-18.61,22.58925900,113.96952483,22.58630436,113.97445502,N,E
109176,-1.28,0.19,9.70,0.00,0.00,0.00,1.19,7.58,-18.59,22.58925900,113.96952483,22.58630436,113.97445502,N,E
109275,-1.29,0.19,9.70,0.00,0.00,0.00,1.18,7.58,-18.58,22.58925900,113.96952483,22.58630436,113.97445502,N,E
109415,-1.28,0.18,9.70,0.00,0.00,0.00,1.18,7.58,-18.57,22.58925900,113.96952483,22.58630436,113.97445502,N,E
109514,-1.29,0.19,9.70,0.00,0.00,0.00,1.18,7.58,-18.56,22.58925900,113.96952483,22.58630436,113.97445502,N,E
109684,-1.29,0.20,9.71,0.06,0.00,0.00,1.17,7.57,-18.54,22.58925900,113.96952483,22.58630436,113.97445502,N,E
109783,-1.28,0.19,9.71,0.00,0.00,0.00,1.16,7.57,-18.54,22.58925900,113.96952483,22.58630436,113.97445502,N,E
109923,-1.29,0.19,9.70,0.06,0.00,0.00,1.16,7.56,-18.53,22.58925900,113.96952483,22.58630436,113.97445502,N,E
110026,-1.29,0.19,9.71,0.00,0.06,0.00,1.16,7.56,-18.52,22.58925900,113.96952483,22.58630436,113.97445502,N,E
110196,-1.28,0.19,9.71,0.00,0.00,0.00,1.16,7.56,-18.51,22.58925900,113.96952483,22.58630436,113.97445502,N,E
110295,-1.28,0.19,9.71,0.00,0.00,0.00,1.15,7.56,-18.51,22.58925900,113.96952483,22.58630436,113.97445502,N,E
110434,-1.29,0.19,9.71,0.00,0.00,0.00,1.15,7.56,-18.50,22.58925900,113.96952483,22.58630436,113.97445502,N,E
110533,-1.29,0.19,9.71,0.00,0.00,0.00,1.15,7.56,-18.50,22.58925900,113.96952483,22.58630436,113.97445502,N,E
110705,-1.29,0.19,9.71,0.00,0.00,0.00,1.14,7.55,-18.49,22.58925900,113.96952483,22.58630436,113.97445502,N,E
110803,-1.29,0.19,9.72,0.00,0.00,0.00,1.14,7.55,-18.48,22.58925900,113.96952483,22.58630436,113.97445502,N,E
110943,-1.28,0.20,9.71,0.00,0.00,0.00,1.14,7.55,-18.48,22.58925883,113.96952483,22.58630420,113.97445502,N,E
111046,-1.29,0.19,9.71,0.00,0.00,0.00,1.14,7.55,-18.48,22.58925883,113.96952483,22.58630420,113.97445502,N,E
111217,-1.28,0.19,9.71,0.00,0.00,0.00,1.14,7.55,-18.47,22.58925883,113.96952483,22.58630420,113.97445502,N,E
111316,-1.28,0.19,9.72,0.00,0.00,0.00,1.14,7.55,-18.47,22.58925883,113.96952483,22.58630420,113.97445502,N,E
111455,-1.28,0.19,9.71,0.00,0.00,0.00,1.13,7.55,-18.47,22.58925883,113.96952483,22.58630420,113.97445502,N,E
111554,-1.28,0.19,9.72,0.00,0.00,0.00,1.13,7.54,-18.46,22.58925883,113.96952483,22.58630420,113.97445502,N,E
111724,-1.28,0.19,9.72,0.00,0.00,0.00,1.13,7.54,-18.46,22.58925883,113.96952483,22.58630420,113.97445502,N,E
111820,-1.29,0.21,9.75,0.00,0.00,0.00,1.13,7.54,-18.46,22.58925883,113.96952483,22.58630420,113.97445502,N,E
111924,-1.28,0.19,9.71,0.00,0.00,0.00,1.13,7.54,-18.46,22.58925883,113.96952483,22.58630420,113.97445502,N,E
112028,-1.29,0.19,9.71,0.00,0.00,0.00,1.13,7.54,-18.46,22.58925883,113.96952483,22.58630420,113.97445502,N,E
112223,-1.29,0.19,9.72,0.00,0.00,0.00,1.13,7.54,-18.45,22.58925883,113.96952483,22.58630420,113.97445502,N,E
112322,-1.29,0.19,9.72,0.00,0.00,0.00,1.13,7.54,-18.45,22.58925883,113.96952483,22.58630420,113.97445502,N,E
112462,-1.29,0.19,9.72,0.00,0.00,0.00,1.13,7.54,-18.45,22.58925883,113.96952483,22.58630420,113.97445502,N,E
112561,-1.28,0.19,9.71,0.00,0.00,0.00,1.13,7.54,-18.45,22.58925883,113.96952483,22.58630420,113.97445502,N,E
112731,-1.29,0.19,9.71,0.00,0.00,0.00,1.12,7.54,-18.45,22.58925883,113.96952483,22.58630420,113.97445502,N,E
112831,-1.29,0.19,9.72,0.00,0.00,0.00,1.12,7.54,-18.45,22.58925883,113.96952483,22.58630420,113.97445502,N,E
112931,-1.29,0.20,9.72,0.00,0.00,0.00,1.12,7.54,-18.44,22.58925883,113.96952483,22.58630420,113.97445502,N,E
